{
  "type": "FeatureCollection",
  "features": [
    {
      "type": "Feature",
      "geometry": {
        "type": "Point",
        "coordinates": [54.8653, 37.22184]
      },
      "properties": {
        "exist": true,
        "type": "kids",
        "title": "Сфера"
      }
    },
    {
      "type": "Feature",
      "geometry": {
        "type": "Point",
        "coordinates": [54.865263, 37.216613]
      },
      "properties": {
        "exist": true,
        "type": "kids",
        "title": "Ракета"
      }
    },
    {
      "type": "Feature",
      "geometry": {
        "type": "Point",
        "coordinates": [54.877312, 37.213643]
      },
      "properties": {
        "exist": true,
        "type": "kids",
        "title": "Радуга"
      }
    },
    {
      "type": "Feature",
      "geometry": {
        "type": "Point",
        "coordinates": [54.874756, 37.222447]
      },
      "properties": {
        "exist": false,
        "type": "kids",
        "title": "Змейка"
      }
    },
    {
      "type": "Feature",
      "geometry": {
        "type": "Point",
        "coordinates": [54.862656, 37.214711]
      },
      "properties": {
        "exist": false,
        "type": "kids",
        "title": "Черепаха и бассейн"
      }
    },
    {
      "type": "Feature",
      "geometry": {
        "type": "Point",
        "coordinates": [54.866975, 37.219185]
      },
      "properties": {
        "exist": true,
        "type": "arch",
        "title": "Дом ученых"
      }
    },
    {
      "type": "Feature",
      "geometry": {
        "type": "Point",
        "coordinates": [54.867646, 37.2026]
      },
      "properties": {
        "exist": true,
        "type": "arch",
        "title": "Теоркорпус"
      }
    },
    {
      "type": "Feature",
      "geometry": {
        "type": "Point",
        "coordinates": [54.87029, 37.213062]
      },
      "properties": {
        "exist": true,
        "type": "arch",
        "title": "Школа №3"
      }
    },
    {
      "type": "Feature",
      "geometry": {
        "type": "Point",
        "coordinates": [54.864774, 37.215873]
      },
      "properties": {
        "exist": true,
        "type": "arch",
        "title": "Дом культуры"
      }
    },
    {
      "type": "Feature",
      "geometry": {
        "type": "Point",
        "coordinates": [54.865024, 37.210094]
      },
      "properties": {
        "exist": true,
        "type": "arch",
        "title": "Гостиница \"Протва\""
      }
    },
    {
      "type": "Feature",
      "geometry": {
        "type": "Point",
        "coordinates": [54.874906, 37.22129]
      },
      "properties": {
        "exist": true,
        "type": "arch",
        "title": "Пентагон"
      }
    },
    {
      "type": "Feature",
      "geometry": {
        "type": "Point",
        "coordinates": [54.871829, 37.221829]
      },
      "properties": {
        "exist": true,
        "type": "arch",
        "title": "Болгарские башни"
      }
    },
    {
      "type": "Feature",
      "geometry": {
        "type": "Point",
        "coordinates": [54.867093, 37.217651]
      },
      "properties": {
        "exist": true,
        "type": "arch",
        "title": "Французские башни"
      }
    },
    {
      "type": "Feature",
      "geometry": {
        "type": "Point",
        "coordinates": [54.869425, 37.218119]
      },
      "properties": {
        "exist": true,
        "type": "arch",
        "title": "Пила"
      }
    },
    {
      "type": "Feature",
      "geometry": {
        "type": "Point",
        "coordinates": [54.875838, 37.21819]
      },
      "properties": {
        "exist": true,
        "type": "arch",
        "title": "Муравейники"
      }
    },
    {
      "type": "Feature",
      "geometry": {
        "type": "Point",
        "coordinates": [54.875408, 37.220661]
      },
      "properties": {
        "exist": true,
        "type": "arch",
        "title": "АТС"
      }
    },
    {
      "type": "Feature",
      "geometry": {
        "type": "Point",
        "coordinates": [54.86327, 37.210222]
      },
      "properties": {
        "exist": true,
        "type": "arch",
        "title": "Летняя танцевальная площадка"
      }
    },
    {
      "type": "Feature",
      "geometry": {
        "type": "Point",
        "coordinates": [54.865534, 37.212926]
      },
      "properties": {
        "exist": true,
        "type": "arch",
        "title": "Торговые ряды"
      }
    },
    {
      "type": "Feature",
      "geometry": {
        "type": "Point",
        "coordinates": [54.865865, 37.211537]
      },
      "properties": {
        "exist": true,
        "type": "art",
        "title": "Сграффито \"Павлин\""
      }
    },
    {
      "type": "Feature",
      "geometry": {
        "type": "Point",
        "coordinates": [54.865164, 37.215313]
      },
      "properties": {
        "exist": true,
        "type": "art",
        "title": "Мозаика \"От простого к сложному\""
      }
    },
    {
      "type": "Feature",
      "geometry": {
        "type": "Point",
        "coordinates": [54.864719, 37.215426]
      },
      "properties": {
        "exist": true,
        "type": "art",
        "title": "Мозаика \"Энергия и космос\""
      }
    },
    {
      "type": "Feature",
      "geometry": {
        "type": "Point",
        "coordinates": [54.879008, 37.208911]
      },
      "properties": {
        "exist": true,
        "type": "art",
        "title": "Панно \"Юность\" на ПТУ"
      }
    },
    {
      "type": "Feature",
      "geometry": {
        "type": "Point",
        "coordinates": [54.86717, 37.2193]
      },
      "properties": {
        "exist": true,
        "type": "art",
        "title": "Панно \"Цветы\" на ДУ"
      }
    },
    {
      "type": "Feature",
      "geometry": {
        "type": "Point",
        "coordinates": [54.873983, 37.217069]
      },
      "properties": {
        "exist": true,
        "type": "art",
        "title": "Флюгер"
      }
    },
    {
      "type": "Feature",
      "geometry": {
        "type": "Point",
        "coordinates": [54.856553, 37.20676]
      },
      "properties": {
        "exist": true,
        "type": "art",
        "title": "Мемориал \"Рубеж обороны\"",
        "marker-symbol": "monument"
      }
    },
    {
      "type": "Feature",
      "geometry": {
        "type": "Point",
        "coordinates": [54.86778, 37.20296]
      },
      "properties": {
        "exist": true,
        "type": "art",
        "title": "Фонтан и внутренний дворик Теоркорпуса"
      }
    },
    {
      "type": "Feature",
      "geometry": {
        "type": "Point",
        "coordinates": [54.86829, 37.19574]
      },
      "properties": {
        "exist": true,
        "type": "art",
        "title": "Скульптура \"Атом\""
      }
    },
    {
      "type": "Feature",
      "geometry": {
        "type": "Point",
        "coordinates": [54.86797, 37.19547]
      },
      "properties": {
        "exist": true,
        "type": "art",
        "title": "Вывеска ИФВЭ"
      }
    },
    {
      "type": "Feature",
      "geometry": {
        "type": "Point",
        "coordinates": [54.86981, 37.21294]
      },
      "properties": {
        "exist": true,
        "type": "art",
        "title": "Барельеф на Школе N°3"
      }
    },
    {
      "type": "Feature",
      "geometry": {
        "type": "Point",
        "coordinates": [54.86986, 37.21994]
      },
      "properties": {
        "exist": true,
        "type": "art",
        "title": "Барельеф на Лицее N°2"
      }
    },
    {
      "type": "Feature",
      "geometry": {
        "type": "Point",
        "coordinates": [54.86496, 37.21373]
      },
      "properties": {
        "exist": true,
        "type": "art",
        "title": "Мозаика \"Рыбки\""
      }
    },
    {
      "type": "Feature",
      "geometry": {
        "type": "Point",
        "coordinates": [54.868861, 37.216327]
      },
      "properties": {
        "exist": true,
        "type": "art",
        "title": "Мозаика на жилом доме"
      }
    },
    {
      "type": "Feature",
      "geometry": {
        "type": "Point",
        "coordinates": [54.869982, 37.214113]
      },
      "properties": {
        "exist": true,
        "type": "culture",
        "title": "Музыкальная школа, Школа Искусств"
      }
    },
    {
      "type": "Feature",
      "geometry": {
        "type": "Point",
        "coordinates": [54.874673, 37.211713]
      },
      "properties": {
        "exist": true,
        "type": "culture",
        "title": "Художественная школа"
      }
    },
    {
      "type": "Feature",
      "geometry": {
        "type": "Point",
        "coordinates": [54.868027, 37.215967]
      },
      "properties": {
        "exist": true,
        "type": "culture",
        "title": "Выставочный центр"
      }
    },
    {
      "type": "Feature",
      "geometry": {
        "type": "Point",
        "coordinates": [54.87051, 37.223598]
      },
      "properties": {
        "exist": true,
        "type": "culture",
        "title": "Камертон"
      }
    },
    {
      "type": "Feature",
      "geometry": {
        "type": "Point",
        "coordinates": [54.86228, 37.200334]
      },
      "properties": {
        "exist": true,
        "type": "sport",
        "title": "Велотрек"
      }
    },
    {
      "type": "Feature",
      "geometry": {
        "type": "Point",
        "coordinates": [54.874092, 37.21643]
      },
      "properties": {
        "exist": true,
        "type": "sport",
        "title": "Стart"
      }
    },
    {
      "type": "Feature",
      "geometry": {
        "type": "Point",
        "coordinates": [54.87444, 37.215589]
      },
      "properties": {
        "exist": true,
        "type": "sport",
        "title": "Волейбольная площадка"
      }
    },
    {
      "type": "Feature",
      "geometry": {
        "type": "Point",
        "coordinates": []
      },
      "properties": {
        "exist": true,
        "type": "sport",
        "title": "Баскетбольная площадка"
      }
    },
    {
      "type": "Feature",
      "geometry": {
        "type": "Point",
        "coordinates": [54.856263, 37.211227]
      },
      "properties": {
        "exist": true,
        "type": "sport",
        "title": "Стадио Протва"
      }
    },
    {
      "type": "Feature",
      "geometry": {
        "type": "Point",
        "coordinates": [54.852709, 37.183787]
      },
      "properties": {
        "exist": true,
        "type": "tourism",
        "title": "Железный мост, бывшая плотина"
      }
    },
    {
      "type": "Feature",
      "geometry": {
        "type": "Point",
        "coordinates": [54.852355, 37.184801]
      },
      "properties": {
        "exist": true,
        "type": "tourism",
        "title": "Старая мельница купцов Бобровых"
      }
    },
    {
      "type": "Feature",
      "geometry": {
        "type": "Point",
        "coordinates": [54.850431, 37.19863]
      },
      "properties": {
        "exist": true,
        "type": "tourism",
        "title": "Подвесной мост"
      }
    },
    {
      "type": "Feature",
      "geometry": {
        "type": "Point",
        "coordinates": [54.856553, 37.20676]
      },
      "properties": {
        "exist": true,
        "type": "tourism",
        "title": "Мемориал \"Рубеж обороны\""
      }
    },
    {
      "type": "Feature",
      "geometry": {
        "type": "Point",
        "coordinates": [54.86829, 37.217182]
      },
      "properties": {
        "exist": false,
        "type": "lost",
        "title": "Юбилейный"
      }
    },
    {
      "type": "Feature",
      "geometry": {
        "type": "Point",
        "coordinates": [54.875951, 37.216287]
      },
      "properties": {
        "exist": false,
        "type": "lost",
        "title": "Русь"
      }
    },
    {
      "type": "Feature",
      "geometry": {
        "type": "Point",
        "coordinates": [54.865133, 37.217498]
      },
      "properties": {
        "exist": false,
        "type": "lost",
        "title": "Рябинка"
      }
    },
    {
      "type": "Feature",
      "geometry": {
        "type": "Point",
        "coordinates": [54.872555, 37.210144]
      },
      "properties": {
        "exist": false,
        "type": "lost",
        "title": "Дружба"
      }
    },
    {
      "type": "Feature",
      "geometry": {
        "type": "Point",
        "coordinates": [54.872625, 37.209276]
      },
      "properties": {
        "exist": false,
        "type": "lost",
        "title": "Бар"
      }
    },
    {
      "type": "Feature",
      "geometry": {
        "type": "Point",
        "coordinates": [54.87025, 37.225402]
      },
      "properties": {
        "exist": true,
        "type": "lost",
        "title": "Ока"
      }
    },
    {
      "type": "Feature",
      "properties": {
        "exist": true,
        "title": "Blue plane, 2019 / Observer it, 2019",
        "type": "ninety"
      },
      "geometry": {
        "type": "Point",
        "coordinates": [54.876899, 37.137873]
      }
    },
    {
      "type": "Feature",
      "properties": {
        "exist": true,
        "title": "This house is not empty, 2019",
        "type": "ninety"
      },
      "geometry": {
        "type": "Point",
        "coordinates": [54.865308, 37.16198]
      }
    },
    {
      "type": "Feature",
      "properties": {
        "exist": true,
        "title": "Colder than yesterday, 2018",
        "type": "ninety"
      },
      "geometry": {
        "type": "Point",
        "coordinates": [54.8588174, 37.1954368]
      }
    },
    {
      "type": "Feature",
      "properties": {
        "exist": true,
        "title": "Sleep of leaves, 2018",
        "type": "ninety"
      },
      "geometry": {
        "type": "Point",
        "coordinates": [54.85409, 37.171686]
      }
    },
    {
      "type": "Feature",
      "properties": {
        "exist": true,
        "title": "Finish II 2018",
        "type": "ninety"
      },
      "geometry": {
        "type": "Point",
        "coordinates": [54.885026, 37.242406]
      }
    },
    {
      "type": "Feature",
      "properties": {
        "exist": true,
        "title": "And the water will come down, 2018",
        "type": "ninety"
      },
      "geometry": {
        "type": "Point",
        "coordinates": [54.854685, 37.17601]
      }
    },
    {
      "type": "Feature",
      "properties": {
        "exist": true,
        "title": "The Return point, 2018",
        "type": "ninety"
      },
      "geometry": {
        "type": "Point",
        "coordinates": [54.8638589, 37.1917905]
      }
    },
    {
      "type": "Feature",
      "properties": {
        "exist": true,
        "title": "Mirror green, 2017",
        "type": "ninety"
      },
      "geometry": {
        "type": "Point",
        "coordinates": [54.892846, 37.240633]
      }
    },
    {
      "type": "Feature",
      "properties": {
        "exist": true,
        "title": "Into a long voyage, 2017",
        "type": "ninety"
      },
      "geometry": {
        "type": "Point",
        "coordinates": [54.8523031, 37.2192923]
      }
    },
    {
      "type": "Feature",
      "properties": {
        "exist": true,
        "title": "Blue boat, 2020",
        "type": "ninety"
      },
      "geometry": {
        "type": "Point",
        "coordinates": [54.859432, 37.197093]
      }
    },
    {
      "type": "Feature",
      "properties": {
        "exist": true,
        "title": "House on a house, 2020",
        "type": "ninety"
      },
      "geometry": {
        "type": "Point",
        "coordinates": [37.200977, 54.859969]
      }
    },
    {
      "type": "Feature",
      "properties": {
        "exist": true,
        "title": "Last waves of freedom, 2020",
        "type": "ninety"
      },
      "geometry": {
        "type": "Point",
        "coordinates": [54.8517422, 37.1678063]
      }
    },
    {
      "type": "Feature",
      "properties": {
        "exist": true,
        "title": "Тишина мысли, 2021",
        "type": "ninety"
      },
      "geometry": {
        "type": "Point",
        "coordinates": [54.8634993, 37.2105972]
      }
    },
    {
      "type": "Feature",
      "properties": {
        "exist": true,
        "title": "На работу и домой,, 2020",
        "type": "ninety"
      },
      "geometry": {
        "type": "Point",
        "coordinates": [54.865285, 37.2066956]
      }
    }
  ]
}
